{"hotels":[{"country":"France","displayType":"Hotel","city":"Paris","latitude":48.875126,"name":"Splendid Etoile Hotel","hotelId":4026401,"thumbnail_url":"https:\/\/az712897.vo.msecnd.net\/images\/full\/58a45c7d-beef-42fa-a5f3-167610ba59a9.jpeg","isActive":1,"longitude":2.293814},{"country":"France","displayType":"Hotel","city":"Paris","latitude":48.86349,"name":"Coeur de Paris Hotel de Ville","hotelId":8755005,"thumbnail_url":"https:\/\/az712897.vo.msecnd.net\/images\/full\/883503e7-e565-4825-9a87-40d07cdd8c6c.jpeg","isActive":1,"longitude":2.3577},{"country":"France","displayType":"Hotel","city":"Paris","latitude":48.84124,"name":"Artisan Lofts Paris Close Eiffel Tower","hotelId":8414028,"thumbnail_url":"https:\/\/az712897.vo.msecnd.net\/images\/full\/dd553c45-0fe6-4bf5-9de5-93207492151e.jpeg","isActive":1,"longitude":2.28948},{"country":"France","displayType":"Hotel","city":"Paris","latitude":48.8467,"name":"HÔtel De L'aveyron","hotelId":4558758,"thumbnail_url":"https:\/\/az712897.vo.msecnd.net\/images\/full\/2a3ecb2f-1b2d-468a-88f6-645999c7e2ca.jpeg","isActive":1,"longitude":2.37009},{"country":"France","displayType":"Hotel","city":"Paris","latitude":48.851893,"name":"Relais Saint Germain","hotelId":4028850,"thumbnail_url":"https:\/\/az712897.vo.msecnd.net\/images\/full\/de49bfa8-dbd3-4205-a732-c192fa8b1636.jpeg","isActive":1,"longitude":2.338746}],"locations":[{"country":"France","displayType":"Location","city":"Paris","name":"Paris","placeId":"ChIJD7fiBh9u5kcRYJSMaMOCCwQ","source":"google","googleType":{"TypeNameEN":"city","TypeNameAR":"مدينة"}},{"country":"USA","displayType":"Location","city":"TX","name":"Paris","placeId":"ChIJmysnFgZYSoYRSfPTL2YJuck","source":"google","googleType":{"TypeNameEN":"city","TypeNameAR":"مدينة"}},{"country":"France","displayType":"Location","city":"Orly","name":"Paris-Orly Airport (ORY)","placeId":"ChIJHTtq-rF15kcRIoTbQ9feeJ0","source":"google","googleType":{"TypeNameEN":"airport","TypeNameAR":"المطار"}},{"country":"France","displayType":"Location","city":"Roissy-en-France","name":"Paris-Charles de Gaulle Airport (CDG)","placeId":"ChIJW89MjgM-5kcRLKZbL5jgKwQ","source":"google","googleType":{"TypeNameEN":"airport","TypeNameAR":"المطار"}}]}